{
  "type": "FeatureCollection",
  "features": [
    {
      "type": "Feature",
      "properties": {
        "nombre": "Montañas del Fuego – Timanfaya"
      },
      "geometry": {
        "type": "Point",
        "coordinates": [-13.734184, 29.009967]
      }
    },
    {
      "type": "Feature",
      "properties": {
        "nombre": "Jameos del Agua y Casa de los Volcanes"
      },
      "geometry": {
        "type": "Point",
        "coordinates": [-13.432148, 29.157486]
      }
    },
    {
      "type": "Feature",
      "properties": {
        "nombre": "Cueva de los Verdes"
      },
      "geometry": {
        "type": "Point",
        "coordinates": [-13.439350, 29.160432]
      }
    },
    {
      "type": "Feature",
      "properties": {
        "nombre": "Jardín de Cactus"
      },
      "geometry": {
        "type": "Point",
        "coordinates": [-13.476332, 29.080516]
      }
    },
    {
      "type": "Feature",
      "properties": {
        "nombre": "Mirador del Río"
      },
      "geometry": {
        "type": "Point",
        "coordinates": [-13.481168, 29.214546]
      }
    },
    {
      "type": "Feature",
      "properties": {
        "nombre": "Castillo de San José y MIAC Lanzarote"
      },
      "geometry": {
        "type": "Point",
        "coordinates": [-13.53322922568715, 28.9710156012731] 
      }
    },
    {
      "type": "Feature",
      "properties": {
        "nombre": "Casa Museo del Campesino"
      },
      "geometry": {
        "type": "Point",
        "coordinates": [-13.6155062979775, 29.015992067782385] 
      }
    }
  ]
}
